City_ID,City,Lat,Lng,Max Temp,Humidity,Cloudiness,Wind Speed,Country,Date
0,qaqortoq,60.7167,-46.0333,4.71,94,99,1.54,GL,1690395382
1,mambajao,9.2504,124.7156,27.66,80,100,3.84,PH,1690394949
2,iqaluit,63.7506,-68.5145,7.61,81,97,1.79,CA,1690395180
3,papatowai,-46.5619,169.4708,5.42,90,100,12.14,NZ,1690395379
4,blackmans bay,-43.0167,147.3167,9.83,83,100,2.5,AU,1690395415
5,whitehorse,60.7161,-135.0538,17.12,77,75,1.03,CA,1690395179
6,mae sot,16.7167,98.5667,22.85,96,48,1.61,TH,1690394950
7,port-aux-francais,-49.35,70.2167,5.47,82,92,20.2,TF,1690395422
8,grytviken,-54.2811,-36.5092,-1.58,95,95,3.9,GS,1690395422
9,vorgashor,67.5833,63.95,14.75,89,96,3.93,RU,1690395422
10,saldanha,-33.0117,17.9442,12.7,86,88,2.4,ZA,1690395422
11,cocoa beach,28.32,-80.6076,33.92,73,75,4.63,US,1690394952
12,waitangi,-43.9535,-176.5597,9.54,58,100,9.02,NZ,1690395423
13,mount pearl,47.5166,-52.7813,29.19,42,40,6.69,CA,1690395410
14,badger,64.8,-147.5333,22.99,74,75,2.06,US,1690395376
15,mersa matruh,31.3525,27.2453,28.2,71,0,3.56,EG,1690394953
16,bethel,41.3712,-73.414,31.08,60,0,4.12,US,1690395424
17,colonia,50.9333,6.95,22.2,47,0,5.66,DE,1690394953
18,portland,45.5234,-122.6762,24.23,60,20,4.63,US,1690395175
19,avarua,-21.2078,-159.775,20.03,94,100,1.03,CK,1690395393
20,kidal,18.4411,1.4078,37.93,22,64,6.08,ML,1690394954
21,udachny,66.4167,112.4,16.92,77,100,2.48,RU,1690395402
22,vadso,70.0744,29.7487,11.49,93,100,2.57,NO,1690395426
23,invercargill,-46.4,168.35,6.07,80,97,11.63,NZ,1690395427
24,uturoa,-16.7333,-151.4333,25.52,85,45,4.54,PF,1690395427
25,albany,42.6001,-73.9662,30.57,61,7,0.89,US,1690395319
26,sisimiut,66.9395,-53.6735,8.13,77,37,3.96,GL,1690395427
27,talnakh,69.4865,88.3972,19.56,64,11,1.16,RU,1690395428
28,codrington,-38.2667,141.9667,7.82,81,79,5.51,AU,1690394955
29,turpan,42.9333,89.1667,38.69,11,22,2.62,CN,1690394956
30,hawaiian paradise park,19.5933,-154.9731,23.73,97,75,3.6,US,1690395429
31,hino,35.6731,139.4003,28.97,74,0,0.45,JP,1690394956
32,edinburgh of the seven seas,-37.0676,-12.3116,10.43,52,88,8.12,SH,1690395426
33,port augusta,-32.5,137.7667,8.98,59,0,1.86,AU,1690394957
34,anzio,41.4853,12.6179,26.67,56,50,5.6,IT,1690394957
35,penticton,49.4806,-119.5858,24.21,36,1,1.5,CA,1690394957
36,sitka,57.0531,-135.33,14.94,88,100,0.0,US,1690395433
37,celestun,20.8667,-90.4,31.31,64,73,6.7,MX,1690395433
38,anadyr,64.75,177.4833,10.28,93,75,3.58,RU,1690395433
39,enewetak,11.3474,162.3373,28.19,74,95,7.01,MH,1690395433
40,bijie,27.3125,105.2942,19.18,99,100,1.17,CN,1690394959
41,tionk essil,12.7856,-16.5217,28.54,75,98,4.23,SN,1690394959
42,fort st. john,56.2499,-120.8529,12.94,100,100,6.17,CA,1690395434
43,kodiak,57.79,-152.4072,12.73,94,100,1.54,US,1690395434
44,suizhou,31.7111,113.3631,25.57,86,60,0.86,CN,1690394960
45,verkhovazh'ye,60.7472,42.0465,16.74,98,100,2.04,RU,1690394960
46,kabin buri,13.9511,101.7177,26.95,100,91,1.06,TH,1690394960
47,shihezi,44.3,86.0333,30.16,14,41,2.72,CN,1690394961
48,st. john's,47.5649,-52.7093,29.66,42,40,7.2,CA,1690394928
49,bredasdorp,-34.5322,20.0403,9.96,89,98,2.87,ZA,1690395435
50,adamstown,-25.066,-130.1015,19.93,72,81,8.81,PN,1690395379
51,remire-montjoly,4.9167,-52.2667,27.02,89,75,1.54,GF,1690394961
52,manggar,-2.8833,108.2667,27.16,81,47,4.95,ID,1690394962
53,lucapa,-8.4192,20.7447,25.21,24,3,1.04,AO,1690394962
54,ubari,26.5921,12.7805,36.98,7,0,4.66,LY,1690394962
55,paracuru,-3.41,-39.0306,27.28,57,7,7.54,BR,1690394963
56,jiuquan,39.7432,98.5174,26.23,29,96,1.56,CN,1690394963
57,ust-nera,64.5667,143.2,10.75,88,93,3.75,RU,1690395435
58,nelson bay,-32.7167,152.15,10.56,98,0,4.02,AU,1690394963
59,vernal,40.4555,-109.5287,28.84,28,0,1.54,US,1690394675
60,midelt,32.6852,-4.7451,31.79,20,5,8.81,MA,1690394964
61,puerto ayora,-0.7393,-90.3518,29.98,88,46,4.92,EC,1690395428
62,tenenkou,14.4572,-4.9169,38.01,29,16,2.5,ML,1690394970
63,hasaki,35.7333,140.8333,26.28,88,20,3.68,JP,1690395436
64,puerto natales,-51.7236,-72.4875,2.85,83,61,2.12,CL,1690395387
65,haiku-pauwela,20.9219,-156.3051,25.65,76,40,6.69,US,1690395436
66,mount isa,-20.7333,139.5,18.87,72,75,4.12,AU,1690394970
67,ushuaia,-54.8,-68.3,1.81,64,40,5.66,AR,1690395384
68,hermanus,-34.4187,19.2345,11.56,86,96,5.68,ZA,1690395437
69,puerto baquerizo moreno,-0.9,-89.6,27.55,74,20,6.69,EC,1690395437
70,ta`u,-14.2336,-169.5144,25.22,74,86,5.64,AS,1690395437
71,wynyard,-41.0,145.7167,6.66,82,100,1.46,AU,1690394971
72,utrik,11.2278,169.8474,27.94,82,100,7.77,MH,1690395437
73,kish,26.5578,54.0194,35.15,52,61,3.09,IR,1690394972
74,shima,24.4478,117.8111,27.98,73,73,2.17,CN,1690394972
75,severo-yeniseyskiy,60.3725,93.0408,14.62,97,89,1.24,RU,1690395437
76,dudinka,69.4058,86.1778,19.79,73,2,3.26,RU,1690395437
77,port hedland,-20.3167,118.5667,15.03,67,60,0.0,AU,1690394972
78,atafu village,-8.5421,-172.5159,28.02,75,96,8.79,TK,1690395429
79,eyl,7.9803,49.8164,25.1,74,35,11.91,SO,1690394973
80,civril,38.3014,29.7386,29.01,18,0,2.28,TR,1690394973
81,longyearbyen,78.2186,15.6401,12.91,58,20,6.17,SJ,1690395274
82,cabo san lucas,22.8909,-109.9124,34.78,68,40,5.14,MX,1690395330
83,pervomayskoye,43.919,46.7102,22.02,79,0,3.76,RU,1690394974
84,minas de marcona,-15.2119,-75.1103,17.46,61,14,7.06,PE,1690394976
85,al jawf,29.5,38.75,33.9,14,48,5.08,SA,1690395438
86,changshu city,31.6462,120.7422,27.75,87,88,4.03,CN,1690394977
87,barrinha,-21.1936,-48.1639,30.27,25,24,1.11,BR,1690394979
88,selfoss,63.9331,-20.9971,16.69,63,88,2.6,IS,1690394981
89,tazacorte,28.629,-17.9293,24.53,78,20,5.14,ES,1690395438
90,santiago de cao,-7.9589,-79.2392,24.07,69,75,4.63,PE,1690395438
91,punta arenas,-53.15,-70.9167,2.77,68,40,6.22,CL,1690395375
92,olonkinbyen,70.9221,-8.7187,4.87,92,100,5.8,SJ,1690395444
93,kapa'a,22.0752,-159.319,27.18,86,75,7.2,US,1690395444
94,vychegodskiy,61.247,46.8984,15.87,84,91,2.63,RU,1690394982
95,aden,12.7794,45.0367,29.82,75,17,6.91,YE,1690394982
96,qamdo,31.1667,97.2333,3.79,86,38,2.56,CN,1690394992
97,pacific grove,36.6177,-121.9166,22.99,93,100,3.13,US,1690395164
98,peace river,56.2501,-117.286,19.17,77,100,5.14,CA,1690395448
99,port jervis,41.3751,-74.6927,31.1,61,1,3.26,US,1690395010
100,nassau,40.7507,-73.5829,32.88,55,0,5.66,US,1690395012
101,ar ruways,24.1103,52.7306,34.19,62,70,3.53,AE,1690395013
102,plouzane,48.3833,-4.6167,18.18,91,100,6.69,FR,1690395014
103,margaret river,-33.95,115.0667,12.81,74,100,9.03,AU,1690395448
104,high river,50.5834,-113.8687,23.42,28,9,1.23,CA,1690395015
105,brokopondo,4.75,-55.1667,29.61,65,4,0.38,SR,1690395015
106,mil'kovo,55.6078,37.7956,22.73,87,35,5.31,RU,1690395015
107,port mathurin,-19.6833,63.4167,23.78,80,17,6.75,MU,1690395449
108,nichinan,31.6,131.3667,25.6,93,35,1.52,JP,1690395016
109,college,64.8569,-147.8028,23.04,74,75,2.06,US,1690395185
110,stanley,54.868,-1.6985,18.36,63,96,2.57,GB,1690395282
111,mazowe,-17.504,30.9739,15.32,93,54,1.97,ZW,1690395016
112,suzhou,31.3114,120.6181,26.51,83,93,4.33,CN,1690395016
113,sretensk,52.2453,117.7093,16.34,97,92,0.09,RU,1690395016
114,tongren,27.7172,109.1853,24.27,97,100,1.27,CN,1690395017
115,alice springs,-23.7,133.8833,12.75,67,100,0.51,AU,1690395017
116,ancud,-41.8697,-73.8203,9.2,79,100,2.23,CL,1690395418
117,carnarvon,-24.8667,113.6333,16.28,58,57,7.74,AU,1690395450
118,sao joao da barra,-21.6403,-41.0511,25.05,74,68,7.43,BR,1690395151
119,nova vicosa,-17.8919,-39.3719,24.48,64,15,3.73,BR,1690395450
120,coahuayana de hidalgo,18.7,-103.6583,33.43,51,80,2.5,MX,1690395017
121,dunedin,-45.8742,170.5036,7.11,63,70,8.94,NZ,1690395451
122,luganville,-15.5333,167.1667,22.61,86,100,6.24,VU,1690395452
123,san pedro pochutla,15.7333,-96.4667,34.28,48,70,3.11,MX,1690395367
124,bilibino,68.0546,166.4372,9.15,78,44,1.31,RU,1690395401
125,hadibu,12.65,54.0333,25.5,76,30,8.53,YE,1690395453
126,along,28.1667,94.7667,23.48,95,86,0.46,IN,1690395018
127,keflavik,64.0049,-22.5624,15.24,67,75,2.06,IS,1690395453
128,guaruja,-23.9931,-46.2564,27.69,45,16,3.13,BR,1690395018
129,puerto ayacucho,5.6639,-67.6236,30.23,67,45,0.82,VE,1690395018
130,kyabe,9.4515,18.9449,22.02,94,89,0.9,TD,1690395018
131,tura,25.5198,90.2201,23.9,97,100,2.21,IN,1690395454
132,west island,-12.1568,96.8225,23.99,88,40,9.77,CC,1690395455
133,mejit,10.2753,170.8646,27.89,81,100,7.61,MH,1690395019
134,wailua homesteads,22.0669,-159.378,26.44,86,75,7.2,US,1690395418
135,mel'nikovo,56.5558,84.085,15.58,83,13,1.9,RU,1690395019
136,saddiqabad,28.3062,70.1307,32.1,65,100,1.84,PK,1690395019
137,robertsport,6.7533,-11.3686,25.64,87,83,4.92,LR,1690395019
138,livingston,55.9029,-3.5226,17.66,82,20,3.6,GB,1690395019
139,iguape,-24.7081,-47.5553,27.29,50,23,1.96,BR,1690394812
140,vila franca do campo,37.7167,-25.4333,25.23,69,61,2.41,PT,1690395457
141,vilyuchinsk,52.9306,158.4028,13.15,85,85,1.24,RU,1690395166
142,dhidhdhoo,6.8833,73.1,28.19,76,91,2.52,MV,1690395020
143,mar del plata,-38.0023,-57.5575,13.38,79,75,8.23,AR,1690395457
144,isnos,1.9356,-76.2406,22.77,63,42,2.54,CO,1690395020
145,kattivakkam,13.2167,80.3167,28.37,81,100,6.25,IN,1690395020
146,minab,27.1467,57.0801,32.87,69,97,4.73,IR,1690395020
147,kodinsk,58.6881,99.1844,15.79,90,57,0.63,RU,1690395021
148,banyuwangi,-8.2325,114.3576,21.45,91,61,1.68,ID,1690395021
149,ilulissat,69.2167,-51.1,12.01,62,20,2.57,GL,1690395437
150,northam,51.0333,-4.2167,17.59,96,100,9.35,GB,1690395022
151,ribeira grande,38.5167,-28.7,25.22,73,20,5.81,PT,1690395422
152,goure,13.9835,10.2704,27.82,57,98,5.89,NE,1690395022
153,qusmuryn,52.4503,64.6311,19.52,76,13,0.47,KZ,1690395022
154,sanchursk,56.9413,47.2499,19.78,87,72,4.21,RU,1690395023
155,sweetwater,25.7634,-80.3731,33.33,84,100,4.12,US,1690394765
156,cockburn town,21.4612,-71.1419,28.67,80,53,9.04,TC,1690395458
157,fort bragg,35.139,-79.006,36.57,48,20,0.45,US,1690395419
158,klyuchi,52.2667,79.1667,21.51,41,87,2.13,RU,1690395386
159,susuman,62.7833,148.1667,11.09,87,100,2.3,RU,1690395435
160,bodo,67.28,14.405,19.02,71,0,1.54,NO,1690395254
161,belyy yar,53.6039,91.3903,13.94,94,14,3.0,RU,1690395024
162,copala,16.65,-98.9833,33.43,49,42,3.8,MX,1690395024
163,the pas,53.8251,-101.2541,15.01,82,100,6.17,CA,1690395460
164,san andres,12.5847,-81.7006,31.01,70,40,7.2,CO,1690395024
165,yellowknife,62.456,-114.3525,24.29,35,40,8.49,CA,1690395433
166,newman,37.3138,-121.0208,35.03,17,0,1.08,US,1690395460
167,bengkulu,-3.8004,102.2655,24.39,91,57,2.37,ID,1690395025
168,saipan,15.1355,145.701,27.58,100,75,6.69,MP,1690395425
169,tolanaro,-25.0319,46.9987,18.31,70,74,3.98,MG,1690395461
170,jabat,7.75,168.9751,27.07,81,87,3.46,MH,1690395025
171,shenjiamen,29.9576,122.298,26.17,88,99,4.43,CN,1690395461
172,hamilton,39.1834,-84.5333,33.95,64,20,8.23,US,1690395197
173,isafjordur,66.0755,-23.124,10.02,66,75,5.66,IS,1690395461
174,isla mujeres,21.2311,-86.731,33.03,69,29,4.28,MX,1690395026
175,guanambi,-14.2233,-42.7814,30.87,28,15,4.97,BR,1690395026
176,port lincoln,-34.7333,135.8667,12.84,53,0,6.02,AU,1690395345
177,mount gambier,-37.8333,140.7667,7.28,82,26,4.1,AU,1690395424
178,kone,-21.0595,164.8658,14.49,74,15,2.37,NC,1690395026
179,guantanamo,20.1444,-75.2092,32.76,48,97,5.86,CU,1690395461
180,strezhevoy,60.7333,77.5889,15.55,97,46,2.52,RU,1690395027
181,masaka,-0.3338,31.7341,18.71,63,20,2.37,UG,1690395027
182,misratah,32.3754,15.0925,29.18,77,0,8.68,LY,1690395027
183,la passe,45.5549,-0.8967,23.13,69,40,4.48,FR,1690395027
184,ciudad lazaro cardenas,17.9583,-102.2,32.64,51,32,3.8,MX,1690395169
185,akureyri,65.6835,-18.0878,10.96,76,75,4.12,IS,1690395411
186,latimer,30.5346,-88.8667,33.43,49,75,2.06,US,1690395028
187,omutinskiy,56.4745,67.6709,18.88,62,72,1.98,RU,1690395028
188,naze,28.3667,129.4833,26.18,84,99,5.64,JP,1690395028
189,kamloops,50.6665,-120.3192,19.86,53,21,1.34,CA,1690395028
190,masterton,-40.9597,175.6575,3.2,94,67,1.32,NZ,1690394734
191,catu,-12.3531,-38.3789,27.41,54,46,4.1,BR,1690394857
192,berdigestyakh,62.0989,126.6992,10.71,67,70,1.7,RU,1690395029
193,ebon,4.582,168.6964,26.51,86,99,6.47,MH,1690395029
194,porto novo,6.4965,2.6036,25.61,85,56,3.88,BJ,1690395029
195,east london,-33.0153,27.9116,14.52,82,0,0.51,ZA,1690395461
196,praia,14.9215,-23.5087,29.3,74,40,6.69,CV,1690395029
197,margate,51.3813,1.3862,17.61,70,96,3.58,GB,1690395463
198,tazovsky,67.4667,78.7,16.6,73,57,4.4,RU,1690395463
199,tiksi,71.6872,128.8694,4.04,87,37,2.31,RU,1690395463
200,namibe,-15.1961,12.1522,17.69,83,67,3.01,AO,1690395440
201,kapuskasing,49.4169,-82.4331,21.05,73,100,2.57,CA,1690395198
202,gorontalo,0.5412,123.0595,24.32,93,84,2.73,ID,1690395030
203,phan rang-thap cham,11.5667,108.9833,26.1,81,100,2.46,VN,1690395030
204,yangquan,37.8575,113.5633,24.02,65,70,0.55,CN,1690395030
205,jamestown,42.097,-79.2353,30.77,52,20,6.17,US,1690395464
206,port-cartier,50.0334,-66.8654,25.13,42,50,3.22,CA,1690395030
207,horqueta,-23.3428,-57.0597,29.32,32,73,1.48,PY,1690395030
208,erenhot,43.6475,111.9767,23.05,59,46,2.3,CN,1690395030
209,petropavlovsk-kamchatsky,53.0452,158.6483,12.33,100,20,3.0,RU,1690395464
210,sittwe,20.15,92.9,27.31,87,62,4.6,MM,1690395031
211,chonchi,-42.6128,-73.8092,10.07,83,100,1.2,CL,1690395464
212,karratha,-20.7377,116.8463,19.46,69,82,2.45,AU,1690395464
213,huarmey,-10.0681,-78.1522,23.29,67,49,4.64,PE,1690395031
214,borgarnes,64.5383,-21.9206,12.12,63,80,5.05,IS,1690395031
215,le port,-20.9373,55.2919,21.0,93,10,3.03,RE,1690395465
216,moa,20.6569,-74.9403,30.65,67,85,6.21,CU,1690395031
217,pasni,25.2631,63.471,28.48,88,100,2.61,PK,1690395031
218,bibiani,6.4635,-2.3194,24.56,92,53,1.11,GH,1690395031
219,egilsstadir,65.2653,-14.3948,8.95,76,75,6.17,IS,1690395465
220,wingerworth,53.2019,-1.4397,15.7,81,100,4.3,GB,1690395032
221,whangarei,-35.7317,174.3239,8.66,90,68,2.32,NZ,1690395032
222,thompson,55.7435,-97.8558,15.09,67,75,4.12,CA,1690395465
223,holualoa,19.6228,-155.9522,27.15,83,20,2.57,US,1690395465
224,san luis de la loma,17.2706,-100.8939,32.73,54,43,3.34,MX,1690395037
225,christchurch,-43.5333,172.6333,8.28,75,40,5.66,NZ,1690395466
226,ararat,39.8317,44.7049,28.19,39,0,2.73,AM,1690395037
227,auki,-8.7676,160.7034,27.3,81,100,4.11,SB,1690395346
228,bubaque,11.2833,-15.8333,27.53,81,99,6.24,GW,1690395037
229,kavaratti,10.5669,72.642,28.18,75,100,6.54,IN,1690395466
230,flin flon,54.7682,-101.865,11.91,94,100,6.17,CA,1690395466
231,bogale,16.2833,95.4,25.89,92,42,1.82,MM,1690395038
232,leh,34.1667,77.5833,19.98,41,48,2.38,IN,1690395426
233,tidjikja,18.5564,-11.4271,36.46,27,85,6.78,MR,1690395038
234,kaka,37.3482,59.6143,33.83,35,1,7.38,TM,1690395038
235,roma,43.2128,-75.4557,30.94,50,20,2.57,US,1690395259
236,villa hernandarias,-31.231,-59.985,15.14,41,13,6.36,AR,1690395038
237,yuzhno-kurilsk,44.0306,145.8556,18.19,96,50,0.85,RU,1690395038
238,vilhena,-12.7406,-60.1458,33.25,23,1,2.11,BR,1690395038
239,bangassou,4.7413,22.8184,22.13,91,93,0.96,CF,1690395038
240,dwarka,22.2394,68.9678,27.93,84,100,8.18,IN,1690395039
241,camabatela,-8.1881,15.375,22.86,48,43,1.79,AO,1690395039
242,tambopata,-12.7333,-69.1833,29.94,70,75,1.03,PE,1690395039
243,port moresby,-9.4431,147.1797,22.74,89,61,3.78,PG,1690395039
244,bridgewater,44.3835,-64.5155,27.84,71,85,5.14,CA,1690395319
245,la'ie,21.6477,-157.9253,26.98,72,59,6.86,US,1690395039
246,machico,32.7,-16.7667,25.0,73,40,2.57,PT,1690395039
247,alupka,44.4167,34.05,25.25,68,0,5.04,UA,1690395039
248,nemuro,43.3236,145.575,16.26,98,77,0.34,JP,1690395468
249,tutong,4.8,114.65,27.05,90,87,2.55,BN,1690394833
250,tromso,69.6496,18.957,18.01,59,20,5.14,NO,1690395468
251,ola,59.5833,151.2833,11.98,96,100,1.96,RU,1690395040
252,levelland,33.5873,-102.378,35.11,22,79,6.92,US,1690394870
253,pisco,-13.7,-76.2167,22.03,60,100,6.17,PE,1690395468
254,arkhangel'sk,64.5401,40.5433,16.55,74,78,0.6,RU,1690395468
255,musawa,12.1272,7.6698,31.64,42,59,3.27,NG,1690395040
256,usinsk,65.9939,57.5281,14.89,93,100,3.16,RU,1690395040
257,kotamangalam,10.0667,76.6333,24.84,94,96,0.58,IN,1690395041
258,al bawiti,28.3492,28.8659,34.14,17,0,4.72,EG,1690394848
259,weno,7.4515,151.8468,24.97,100,100,4.63,FM,1690395469
260,san patricio,28.017,-97.5169,37.97,37,0,7.1,US,1690395469
261,arraial do cabo,-22.9661,-42.0278,21.92,88,75,11.32,BR,1690395469
262,sandnessjoen,66.0217,12.6316,19.29,68,40,4.12,NO,1690395400
263,hithadhoo,-0.6,73.0833,28.55,78,42,7.63,MV,1690395469
264,bristol,41.8334,-71.1662,32.19,57,0,3.13,US,1690394798
265,kittila,67.6647,24.8936,16.08,77,0,1.54,FI,1690395042
266,richards bay,-28.783,32.0377,19.23,72,54,8.13,ZA,1690395470
267,kirensk,57.7853,108.1119,16.92,93,99,0.52,RU,1690395042
268,salalah,17.0151,54.0924,26.05,89,100,4.12,OM,1690394769
269,juegang,32.3174,121.1855,28.28,93,84,5.28,CN,1690394814
270,bushehr,28.9684,50.8385,33.05,70,0,0.0,IR,1690395043
271,nova sintra,14.8667,-24.7167,23.41,84,99,4.17,CV,1690395472
272,laguna,38.421,-121.4238,33.38,48,0,5.66,US,1690395472
273,mirnyy,62.5353,113.9611,14.02,87,46,4.02,RU,1690395043
274,baharly,38.4362,57.4316,33.3,42,50,4.49,TM,1690395044
275,dayton,39.7589,-84.1916,33.8,61,75,9.77,US,1690395044
276,sinabang,2.4803,96.3801,26.67,84,86,1.44,ID,1690395414
277,komsomolets,53.7453,62.0708,20.39,54,72,2.49,KZ,1690395045
278,mitu,1.1983,-70.1733,32.86,48,19,0.9,CO,1690395046
279,lamarque,-39.423,-65.7021,10.4,51,32,0.35,AR,1690395473
280,petropavl,54.8753,69.1628,16.77,85,89,2.96,KZ,1690395046
281,iwanai,42.9744,140.5089,21.15,93,42,1.7,JP,1690395052
282,mwinilunga,-11.7358,24.4293,17.96,33,8,2.03,ZM,1690395052
283,shimoda,34.6667,138.95,25.61,82,50,2.11,JP,1690395474
284,wuwei,37.9281,102.6414,22.2,50,100,1.81,CN,1690395052
285,buala,-8.145,159.5921,26.55,84,98,1.77,SB,1690395474
286,iskateley,67.6803,53.1512,17.86,74,100,2.13,RU,1690395475
287,argo,37.6333,22.7333,32.1,24,6,2.25,GR,1690395054
288,maintirano,-18.0667,44.0167,22.74,73,4,3.27,MG,1690395054
289,krasnoural'sk,58.3638,60.0407,14.42,95,18,2.28,RU,1690395054
290,abu jibeha,11.4562,31.2285,23.24,88,100,2.98,SD,1690395054
291,port alfred,-33.5906,26.891,15.66,78,48,4.62,ZA,1690395475
292,flying fish cove,-10.4217,105.6791,24.82,88,100,4.63,CX,1690395346
293,kokpekty,48.75,82.4,22.82,31,79,3.71,KZ,1690395055
294,horta,38.5333,-28.6333,24.8,79,20,5.81,PT,1690395476
295,dombarovskiy,50.7587,59.5386,22.98,46,43,4.1,RU,1690395055
296,anloga,5.7947,0.8973,25.55,87,41,5.28,GH,1690395056
297,barra de santo antonio,-9.4047,-35.5072,28.6,67,2,3.07,BR,1690395056
298,likiep,9.8251,169.3107,27.9,81,100,8.04,MH,1690395056
299,n'zeto,-7.2312,12.8666,21.82,83,10,3.33,AO,1690395340
300,midvagur,62.0511,-7.1939,11.46,76,100,2.57,FO,1690395477
301,sorsk,54.0033,90.2467,12.83,82,2,1.22,RU,1690395058
302,luderitz,-26.6481,15.1594,13.9,69,0,5.84,NA,1690395291
303,island harbour,50.724,-1.2758,17.18,93,100,3.13,GB,1690395478
304,kayangel,8.0823,134.7173,27.72,75,100,9.26,PW,1690395059
305,afaahiti,-17.75,-149.2833,24.93,87,81,3.65,PF,1690395478
306,del rio,29.3627,-100.8968,37.35,38,0,8.05,US,1690395059
307,boyolangu,-8.1181,111.8935,20.87,93,44,1.85,ID,1690395059
308,alofi,-19.0595,-169.9187,18.94,94,62,0.51,NU,1690395346
309,ujae,8.9322,165.7642,27.97,79,94,4.95,MH,1690395060
310,arboletes,8.8505,-76.4269,28.36,78,100,3.96,CO,1690395060
311,konsoy,40.4915,69.7025,25.98,13,2,2.65,TJ,1690395060
312,glenfield park,-35.1372,147.334,4.22,89,0,1.79,AU,1690395060
313,lagodekhi,41.8268,46.2767,24.5,68,50,1.7,GE,1690395060
314,nurlat,54.4277,50.8051,22.07,58,42,2.6,RU,1690395060
315,brak,27.5496,14.2714,37.38,7,3,3.49,LY,1690395480
316,atherton,53.5237,-2.4935,15.22,94,100,0.89,GB,1690395061
317,karungdong,5.8844,121.263,27.47,84,90,4.82,PH,1690395061
318,ohara,35.25,140.3833,24.99,93,29,2.88,JP,1690395061
319,aasiaat,68.7098,-52.8699,3.62,87,35,4.48,GL,1690395481
320,tarariras,-34.2833,-57.6167,14.51,61,64,7.8,UY,1690395061
321,vega de alatorre,20.0333,-96.6333,29.56,68,90,2.9,MX,1690395062
322,lakhipur,26.0299,90.3041,26.36,91,100,1.25,IN,1690395062
323,tralee,52.2704,-9.7026,18.14,94,100,8.23,IE,1690395481
324,batticaloa,7.7102,81.6924,28.33,72,100,0.96,LK,1690395062
325,hailey,43.5196,-114.3153,28.22,32,0,6.69,US,1690395062
326,linhares,-19.3911,-40.0722,23.62,70,75,2.31,BR,1690395063
327,cabedelo,-6.9811,-34.8339,29.37,76,16,7.02,BR,1690395063
328,linxia chengguanzhen,35.6003,103.2064,16.81,86,100,1.16,CN,1690394892
329,tyukalinsk,55.8732,72.1967,19.1,59,96,2.23,RU,1690395063
330,carahue,-38.7,-73.1667,10.09,81,100,1.7,CL,1690395063
331,bandarbeyla,9.4942,50.8122,23.91,83,10,13.78,SO,1690395064
332,seguela,7.9611,-6.6731,26.03,86,71,1.6,CI,1690395064
333,praya,14.9215,-23.5087,29.3,74,40,6.69,CV,1690395064
334,barranca,-10.75,-77.7667,22.14,67,52,4.51,PE,1690395064
335,homer,59.6425,-151.5483,18.21,78,0,1.54,US,1690395064
336,pervomays'kyy,49.3874,36.2147,25.98,43,9,6.4,UA,1690395064
337,yanykurgan,43.915,67.2481,34.84,21,9,9.49,KZ,1690395065
338,conception bay south,47.4999,-52.9981,29.53,50,66,6.09,CA,1690395065
339,gasa,31.5,34.4667,31.04,66,0,4.56,PS,1690394924
340,puerto deseado,-47.7503,-65.8938,3.71,64,7,7.38,AR,1690395065
341,palmer,42.1584,-72.3287,30.59,55,20,3.6,US,1690395484
342,burnie,-41.0667,145.9167,8.03,82,100,2.41,AU,1690395065
343,malanje,-9.5402,16.341,25.59,29,10,0.97,AO,1690395066
344,nuuk,64.1835,-51.7216,6.34,87,75,7.2,GL,1690395066
345,guichon,-32.35,-57.2,13.36,75,97,5.64,UY,1690394964
346,mangrol,21.1167,70.1167,27.34,87,99,7.41,IN,1690394959
347,san pedro,14.35,121.0167,27.57,92,75,3.6,PH,1690395486
348,tual,-5.6667,132.75,25.81,81,95,9.3,ID,1690395486
349,oyon,-10.6681,-76.7731,16.83,21,2,4.26,PE,1690394816
350,kajaani,64.2273,27.7285,18.03,77,0,1.03,FI,1690395067
351,belmonte,-15.8631,-38.8828,24.99,65,78,3.22,BR,1690395067
352,kitale,1.0157,35.0062,14.66,93,68,1.08,KE,1690395068
353,tangalle,6.024,80.7911,25.21,89,88,4.07,LK,1690395068
354,beloyarskiy,63.7119,66.6722,14.74,95,100,2.41,RU,1690395068
355,welshpool,52.6597,-3.1471,15.82,92,100,2.38,GB,1690395069
356,saint-pierre,-21.3393,55.4781,20.82,88,100,2.06,RE,1690395489
357,new norfolk,-42.7826,147.0587,10.49,93,100,1.34,AU,1690395489
358,kingston,17.997,-76.7936,34.58,60,20,4.12,JM,1690395446
359,vila velha,-20.3297,-40.2925,25.97,73,0,4.63,BR,1690395489
360,saint-philippe,-21.3585,55.7679,20.77,81,32,4.77,RE,1690395070
361,quelimane,-17.8786,36.8883,20.75,67,92,2.13,MZ,1690395070
362,sant cristofol de les fonts,42.1696,2.4994,25.1,51,98,0.45,ES,1690395071
363,point pedro,9.8167,80.2333,27.39,82,83,9.29,LK,1690395071
364,palikir - national government center,6.9248,158.1611,27.16,80,95,4.1,FM,1690395491
365,rubio,7.7013,-72.3557,29.47,46,78,2.55,VE,1690395071
366,wanning,18.8003,110.3967,27.33,86,99,3.03,CN,1690395072
367,raduzhny,62.0961,77.475,17.43,83,67,2.53,RU,1690395466
368,yaren,-0.5472,166.916,27.98,78,99,4.46,NR,1690395492
369,valdez,1.2492,-78.9831,26.55,80,97,3.91,EC,1690395073
370,port elizabeth,-33.918,25.5701,16.16,67,0,3.6,ZA,1690395457
371,guerrero negro,27.9769,-114.0611,26.8,50,8,4.37,MX,1690395055
372,boende,-0.2167,20.8667,27.57,64,94,1.54,CD,1690395073
373,pimentel,-6.8367,-79.9342,26.16,61,75,4.12,PE,1690395073
374,swakopmund,-22.6833,14.5333,13.88,78,39,2.24,NA,1690395074
375,puerto aysen,-45.4,-72.7,5.02,87,100,0.0,CL,1690395074
376,siteki,-26.45,31.95,14.9,82,15,2.54,SZ,1690395074
377,dori,14.0354,-0.0345,37.86,29,99,2.92,BF,1690395074
378,tadine,-21.55,167.8833,19.78,59,100,7.72,NC,1690395075
379,rongelap,11.1635,166.8941,27.93,81,100,7.85,MH,1690395495
380,ghat,24.9647,10.1728,37.46,8,9,5.19,LY,1690395075
381,papao,-17.75,-149.55,25.82,90,83,2.63,PF,1690395076
382,tarawa,1.419,172.984,26.83,77,99,1.3,KI,1690395076
383,leava,-14.3,-178.1667,25.75,75,100,7.4,WF,1690395499
384,la charite-sur-loire,47.1833,3.0167,22.9,48,99,1.84,FR,1690395076
385,manistee,44.2445,-86.3242,24.41,95,100,0.0,US,1690395077
386,smithers,54.7804,-127.1743,18.0,56,91,2.39,CA,1690395077
387,hovd,48.0056,91.6419,22.03,29,77,3.72,MN,1690395077
388,lazaro cardenas,17.9583,-102.2,32.52,51,43,2.84,MX,1690395077
389,pathein,16.7833,94.7333,25.83,92,37,1.76,MM,1690395077
390,queenstown,-31.8976,26.8753,14.61,46,13,2.29,ZA,1690395078
391,simanggang,1.2472,111.4528,23.63,88,81,0.93,MY,1690395078
392,sola,-13.8833,167.55,24.79,84,100,12.17,VU,1690395078
393,muana,-1.5283,-49.2167,34.42,41,70,1.17,BR,1690395080
394,monrovia,6.3005,-10.7969,26.87,87,84,4.5,LR,1690395080
395,tsetserleg,47.475,101.4542,12.12,73,31,2.14,MN,1690395080
396,turnu magurele,43.75,24.8667,27.52,58,29,9.29,RO,1690395081
397,huicheng,23.0385,116.2899,28.2,81,75,2.17,CN,1690395081
398,palembang,-2.9167,104.7458,27.05,83,40,1.54,ID,1690394955
399,fuyang,32.9,115.8167,24.86,95,0,2.4,CN,1690395082
400,tomatlan,19.9333,-105.25,34.08,46,73,2.28,MX,1690395082
401,lubao,14.9167,120.55,29.04,91,100,6.37,PH,1690395082
402,budva,42.2864,18.84,28.14,72,0,1.03,ME,1690395082
403,rudsar,37.1376,50.288,24.99,82,65,0.77,IR,1690395082
404,north bend,43.4065,-124.2243,23.48,68,0,6.69,US,1690395083
405,pandan,14.0453,124.1694,27.49,81,100,6.3,PH,1690395503
406,bowling green,36.9903,-86.4436,31.97,64,0,5.14,US,1690394795
407,ust-tsilma,65.441,52.1498,15.2,87,42,1.42,RU,1690395084
408,malango,-2.9627,119.9001,18.92,97,90,0.38,ID,1690395084
409,constantia,44.1833,28.65,25.39,71,7,2.21,RO,1690395504
410,aswan,24.0934,32.907,37.95,14,99,3.15,EG,1690395085
411,telemaco borba,-24.3239,-50.6156,25.03,42,85,1.8,BR,1690395085
412,kalymnos,36.95,26.9833,29.74,65,0,4.63,GR,1690395085
413,lionel town,17.8101,-77.2406,32.94,54,100,3.42,JM,1690395504
414,labytnangi,66.6572,66.4183,16.42,89,99,4.26,RU,1690395085
415,kainantu,-6.2887,145.8655,13.61,98,74,1.09,PG,1690395085
416,gornopravdinsk,60.05,69.9,15.28,97,93,2.25,RU,1690395086
417,bizhbulyak,53.6967,54.2642,19.01,76,66,2.03,RU,1690395086
418,olbernhau,50.6667,13.3333,16.43,77,73,3.42,DE,1690395086
419,izberbash,42.5696,47.8645,24.03,82,13,3.87,RU,1690395086
420,iringa,-7.7667,35.7,11.82,69,28,3.47,TZ,1690395086
421,crane,31.3974,-102.3501,34.56,25,21,7.84,US,1690395462
422,guane,22.2025,-84.0875,33.84,50,47,3.42,CU,1690395086
423,aripuana,-9.1667,-60.6333,36.57,23,3,1.5,BR,1690395086
424,broome,42.2506,-75.833,30.81,49,40,3.09,US,1690395506
425,hobbs,32.7026,-103.136,35.03,17,0,6.69,US,1690395086
426,kapoeta,4.7717,33.5903,22.62,85,86,3.46,SS,1690395087
427,ixtapa,20.7,-105.2,30.57,74,75,3.09,MX,1690395087
428,happy valley-goose bay,53.3168,-60.3315,26.17,41,40,5.14,CA,1690395321
429,onega,63.9061,38.1404,14.82,81,95,2.32,RU,1690395507
430,burang,30.25,81.1667,11.14,84,99,2.16,CN,1690395507
431,kailua-kona,19.6406,-155.9956,29.22,82,20,2.57,US,1690395507
432,moelan-sur-mer,47.8142,-3.6289,18.15,94,100,5.66,FR,1690395087
433,frontera,26.9333,-101.45,33.86,45,40,3.13,MX,1690395087
434,zuunmod,47.7069,106.9528,9.57,78,5,0.79,MN,1690395087
435,salida,37.7058,-121.0849,31.75,40,0,2.06,US,1690395087
436,lebu,-37.6167,-73.65,10.45,74,100,1.96,CL,1690395466
437,tommot,58.9564,126.2925,16.17,94,40,0.85,RU,1690395509
438,touros,-5.1989,-35.4608,28.47,62,10,8.2,BR,1690395500
439,lihue,21.9789,-159.3672,26.77,82,75,7.2,US,1690395326
440,kudat,6.8837,116.8477,26.83,88,100,1.34,MY,1690395088
441,jaisalmer,26.9147,70.9181,31.89,63,99,2.32,IN,1690395088
442,chasong,41.4608,126.6414,19.97,98,18,1.42,KP,1690395088
443,bungu,-7.6337,39.0582,20.93,83,22,2.8,TZ,1690395088
444,la penita de jaltomba,21.0333,-105.25,30.94,63,94,2.13,MX,1690395088
445,yuzhno-sukhokumsk,44.6581,45.6436,25.67,48,1,4.71,RU,1690395088
446,guelph,43.5501,-80.2497,29.73,52,20,7.72,CA,1690394911
447,as sulayyil,20.4607,45.5779,37.73,8,38,3.99,SA,1690395088
448,hotan,37.0997,79.9269,29.14,27,4,3.23,CN,1690395088
449,qarauyl,48.9451,79.255,23.32,30,96,2.97,KZ,1690395088
450,binhe,32.6883,112.8275,25.97,79,99,2.31,CN,1690395089
451,rangsdorf,52.295,13.4334,19.46,58,0,2.06,DE,1690395089
452,illizi,26.4833,8.4667,39.82,7,7,5.16,DZ,1690395089
453,hammerfest,70.6634,23.6821,15.25,63,40,5.66,NO,1690395469
454,tshabong,-26.05,22.45,18.77,23,59,3.5,BW,1690395511
455,orcopampa,-15.2661,-72.3417,14.17,9,0,3.18,PE,1690395089
456,minas,-34.3759,-55.2377,11.16,88,100,8.56,UY,1690395089
457,kourou,5.1552,-52.6478,27.03,66,15,3.64,GF,1690395512
458,lebanon,36.2081,-86.2911,32.28,66,20,3.6,US,1690394824
459,shiqian,27.5225,108.2281,23.64,98,100,0.27,CN,1690395089
460,buritizeiro,-17.3511,-44.9622,31.47,23,2,0.9,BR,1690395089
461,qarazhal,48.0078,70.7903,28.07,33,100,3.16,KZ,1690395090
462,amiens,49.9,2.3,22.55,63,99,2.78,FR,1690394970
463,mirny,62.5353,113.9611,14.02,87,46,4.02,RU,1690395043
464,baturaja,-4.1333,104.1667,22.79,98,87,0.7,ID,1690395090
465,arambol,15.6868,73.7045,25.48,86,100,7.71,IN,1690395090
466,monticello,45.3055,-93.7941,31.62,64,0,0.0,US,1690394978
467,maba,24.6841,113.5984,24.99,91,92,1.16,CN,1690394910
468,san antonio de pale,-1.4014,5.6325,23.03,90,75,5.54,GQ,1690395514
469,bethanie,-26.4833,17.15,12.51,17,0,1.48,NA,1690395091
470,sakakah,29.9697,40.2064,37.21,11,21,4.28,SA,1690395091
471,griffith,41.5284,-87.4237,30.05,79,100,6.69,US,1690395091
472,popesti,47.2333,22.4167,20.77,85,99,3.04,RO,1690395092
473,bandar lampung,-5.4254,105.258,23.35,90,52,2.19,ID,1690395093
474,sulak,43.2734,47.5146,24.47,78,0,6.32,RU,1690395093
475,langsa,4.4683,97.9683,24.03,97,48,0.93,ID,1690395093
476,luza,60.6308,47.2512,16.44,84,98,3.01,RU,1690395093
477,zeya,53.75,127.2667,17.83,67,12,1.28,RU,1690395093
478,chos malal,-37.3781,-70.2709,9.09,37,85,1.34,AR,1690395515
479,ampanihy,-24.7,44.75,16.67,64,0,6.36,MG,1690395094
480,sona,45.4388,10.8255,26.69,39,20,3.09,IT,1690395094
481,faya-largeau,17.9257,19.1043,37.44,11,99,2.9,TD,1690395094
482,taoudenni,22.6783,-3.9836,45.96,7,4,3.75,ML,1690395516
483,felixstowe,51.9637,1.3511,19.98,64,78,3.13,GB,1690395094
484,shanghai,31.2222,121.4581,28.92,88,75,4.0,CN,1690394822
485,qarqaraly,49.4058,75.4742,23.68,32,100,3.03,KZ,1690395516
486,rolla,37.9514,-91.7713,33.04,55,0,7.2,US,1690395095
487,soba,10.9813,8.0575,26.26,65,52,2.81,NG,1690395095
488,rio rico,31.4715,-110.9765,37.81,41,5,2.27,US,1690395095
489,fale old settlement,-9.3852,-171.2468,28.29,72,91,8.44,TK,1690395517
490,jumla,29.2747,82.1838,17.47,96,100,1.11,NP,1690395095
491,nadym,65.5333,72.5167,20.86,69,56,3.54,RU,1690395008
492,kalabo,-14.97,22.6814,19.65,31,60,1.72,ZM,1690395519
493,walvis bay,-22.9575,14.5053,13.94,73,10,7.29,NA,1690395519
494,es castell,39.8795,4.2854,25.38,57,0,3.6,ES,1690395096
495,betio village,1.358,172.9211,26.46,80,100,0.45,KI,1690395392
496,kuqa,41.7278,82.9364,31.16,21,1,1.65,CN,1690395096
497,medicine hat,50.0501,-110.6683,23.73,28,0,1.79,CA,1690395096
498,fort mcmurray,56.7268,-111.381,18.36,52,91,1.61,CA,1690395074
499,oyama,36.3,139.8,27.42,63,18,1.25,JP,1690395097
500,tessaoua,13.7574,7.9874,34.97,35,84,5.24,NE,1690395102
501,bhabhua,25.05,83.6167,34.31,47,100,5.69,IN,1690395102
502,chalinze,-6.6378,38.354,21.77,69,90,2.73,TZ,1690395102
503,tondano,1.3038,124.9112,20.05,97,98,1.91,ID,1690395102
504,bilmak,47.3624,36.6511,21.84,60,1,3.81,UA,1690395102
505,kerrville,30.0474,-99.1403,35.66,41,40,5.66,US,1690395102
506,rampur,28.8167,79.0333,27.65,81,100,2.43,IN,1690395102
507,loreto,22.2667,-101.9667,20.54,51,100,2.39,MX,1690395103
508,jiayuguan,39.8167,98.3,26.14,27,91,0.74,CN,1690395103
509,al khafji,28.4391,48.4913,35.68,34,5,3.0,SA,1690395103
510,okhotsk,59.3833,143.3,14.39,97,87,1.89,RU,1690395523
511,valparaiso,-33.0393,-71.6273,16.13,70,40,4.63,CL,1690395103
512,tucuma,-0.1833,-50.05,30.97,58,35,2.8,BR,1690395103
513,mariental,-24.6333,17.9667,18.88,17,0,5.67,NA,1690395525
514,luckenwalde,52.0833,13.1667,19.39,53,81,2.68,DE,1690395103
515,cidade velha,14.9167,-23.6167,29.26,74,40,6.69,CV,1690395103
516,amos,48.5669,-78.1162,22.66,69,84,4.85,CA,1690394995
517,terenozek,45.05,64.9833,30.69,29,100,4.85,KZ,1690395103
518,cuajinicuilapa,16.4667,-98.4167,34.58,45,59,1.55,MX,1690395104
519,huanuni,-18.2667,-66.85,11.27,9,0,6.04,BO,1690395104
520,pasan,22.85,82.2,26.62,77,78,1.64,IN,1690395104
521,hashtrud,37.4779,47.0508,22.63,44,17,2.24,IR,1690395104
522,bhamo,24.2667,97.2333,23.92,97,75,0.57,MM,1690395104
523,aykhal,66.0,111.5,15.53,70,100,3.07,RU,1690395526
524,les trois-ilets,14.539,-61.0361,31.95,66,75,6.69,MQ,1690395104
525,kovdor,67.5662,30.4758,15.05,73,100,1.34,RU,1690395104
526,axim,4.8699,-2.2405,25.66,85,90,3.02,GH,1690395104
527,bria,6.5423,21.9863,23.0,91,82,0.71,CF,1690395104
528,bamboo flat,11.7,92.7167,27.66,84,95,7.02,IN,1690395105
529,taro,-8.3862,115.28,21.03,93,73,1.22,ID,1690395105
530,chegdomyn,51.1167,133.0167,17.01,98,75,0.36,RU,1690395105
531,tres arroyos,-38.3739,-60.2798,8.27,74,66,7.93,AR,1690395105
532,korsholm,63.1142,21.6822,17.16,88,0,1.03,FI,1690395105
533,ascension,30.2169,-90.9001,35.12,48,40,3.09,US,1690395105
534,hermansverk,61.1846,6.8502,21.25,55,0,0.51,NO,1690395105
535,tonghae,37.5439,129.1069,25.37,82,97,3.01,KR,1690394964
536,harar,9.3094,42.1258,16.62,77,32,2.45,ET,1690395105
537,howrah,22.5892,88.3103,28.0,89,40,2.06,IN,1690395456
538,cooma,-36.2333,149.1333,0.43,73,8,1.14,AU,1690395105
539,tuy hoa,13.0833,109.3,26.64,79,100,6.0,VN,1690395106
540,itoman,26.1247,127.6694,28.43,92,75,7.2,JP,1690395528
541,chibougamau,49.9168,-74.3659,20.79,68,75,6.92,CA,1690395502
542,bathsheba,13.2167,-59.5167,30.58,83,40,8.23,BB,1690395106
543,berea,41.3662,-81.8543,32.3,59,40,8.23,US,1690395106
544,polyarnyy,69.1989,33.4478,10.56,97,100,2.59,RU,1690395499
545,sarandi del yi,-33.35,-55.6333,11.94,89,100,8.47,UY,1690395106
546,san matias,-16.3667,-58.4,36.96,19,0,1.59,BO,1690395528
547,bakanas,44.8081,76.2772,31.8,18,0,4.31,KZ,1690395106
548,hilo,19.7297,-155.09,23.85,97,75,3.6,US,1690395106
549,novofedorivka,46.1713,32.3178,24.57,71,3,9.46,UA,1690395106
550,diu,20.7141,70.9822,26.99,88,100,7.49,IN,1690395106
551,langepas,61.2544,75.2124,15.49,98,52,2.81,RU,1690395083
552,feres,40.8956,26.17,28.69,61,0,0.0,GR,1690395107
553,paita,-5.0892,-81.1144,24.69,67,93,5.27,PE,1690395482
554,sidareja,-7.4846,108.7923,20.78,97,66,0.22,ID,1690395107
555,orkney,-26.9802,26.6727,13.87,46,0,4.43,ZA,1690395107
556,neryungri,56.6709,124.6491,14.02,93,54,0.69,RU,1690395107
557,chilliwack,49.1747,-121.9443,22.21,61,21,1.54,CA,1690395107
558,sabang,5.8933,95.3214,28.13,81,100,8.96,ID,1690395529
559,pionerskiy,54.9508,20.2275,16.53,69,96,5.98,RU,1690395107
